City_ID,City,Lat,Lng,Max Temp,Humidity,Cloudiness,Wind Speed,Country,Date
0,nanning,22.8167,108.3167,27.25,94,96,2.31,CN,1722527348
1,margaret river,-33.95,115.0667,10.81,63,91,3.41,AU,1722527349
2,olonkinbyen,70.9221,-8.7187,4.95,99,99,5.97,SJ,1722527350
3,morteros,-30.7116,-61.9986,26.12,37,100,9.16,AR,1722527351
4,waitangi,-43.9535,-176.5597,7.12,64,67,9.38,NZ,1722527353
5,lubango,-14.9172,13.4925,23.92,31,4,3.09,AO,1722527354
6,tiksi,71.6872,128.8694,1.58,80,73,0.62,RU,1722527355
7,luderitz,-26.6481,15.1594,17.98,50,0,7.97,NA,1722527356
8,queenstown,-31.8976,26.8753,13.31,41,39,1.25,ZA,1722527357
9,tosontsengel,48.7567,98.2839,10.91,88,96,1.47,MN,1722527359
10,vorgashor,67.5833,63.95,19.14,73,70,4.13,RU,1722527360
11,ashland,40.8167,-82.2665,29.45,66,5,2.76,US,1722527361
12,adamstown,-25.066,-130.1015,19.77,89,100,5.45,PN,1722527362
13,menongue,-14.6585,17.691,30.01,12,16,2.38,AO,1722527363
14,zaragoza,41.6561,-0.8773,39.14,22,0,3.6,ES,1722527364
15,hamilton,39.1834,-84.5333,30.14,78,75,3.6,US,1722527366
16,bismarck,46.8083,-100.7837,27.48,61,0,4.12,US,1722527367
17,stanley,54.868,-1.6985,22.01,69,20,3.09,GB,1722527368
18,nkove,-7.95,30.85,24.94,38,58,2.85,TZ,1722527369
19,edinburgh of the seven seas,-37.0676,-12.3116,13.06,77,14,14.69,SH,1722527371
20,grand-bassam,5.2118,-3.7388,23.98,90,100,4.27,CI,1722527372
21,bredasdorp,-34.5322,20.0403,10.7,89,0,1.89,ZA,1722527373
22,grytviken,-54.2811,-36.5092,-4.99,54,5,1.42,GS,1722527374
23,ribeira grande,38.5167,-28.7,27.22,78,40,5.81,PT,1722527375
24,kingston,17.997,-76.7936,35.09,59,20,1.54,JM,1722527377
25,pimentel,-6.8367,-79.9342,19.16,77,100,3.6,PE,1722527379
26,kindu,-2.95,25.95,31.77,30,73,1.06,CD,1722527380
27,blackmans bay,-43.0167,147.3167,5.29,93,93,3.02,AU,1722527381
28,papatowai,-46.5619,169.4708,6.2,86,100,0.85,NZ,1722527382
29,acarau,-2.8856,-40.12,31.95,44,7,6.58,BR,1722527384
30,udachny,66.4167,112.4,8.75,58,29,1.61,RU,1722527299
31,fort drum,44.0584,-75.7619,27.6,76,20,2.06,US,1722527387
32,anadyr,64.75,177.4833,6.28,81,75,2.0,RU,1722527388
33,waddan,29.1614,16.139,36.18,18,0,4.99,LY,1722527390
34,vila franca do campo,37.7167,-25.4333,24.23,73,56,1.13,PT,1722527391
35,fortuna,40.5982,-124.1573,14.99,96,100,0.0,US,1722527392
36,pollock pines,38.7613,-120.5866,24.83,39,0,0.0,US,1722527393
37,port-aux-francais,-49.35,70.2167,3.52,92,78,9.86,TF,1722527394
38,albany,42.6001,-73.9662,29.8,71,0,1.79,US,1722527396
39,sulzbach-rosenberg,49.4983,11.7517,23.26,88,100,2.67,DE,1722527397
40,colonia,50.9333,6.95,22.2,87,75,4.12,DE,1722527398
41,port douglas,-16.4833,145.4667,20.49,80,52,5.13,AU,1722527399
42,puerto natales,-51.7236,-72.4875,2.25,100,100,1.03,CL,1722527400
43,magadan,59.5667,150.8,9.34,91,100,4.99,RU,1722527402
44,tolanaro,-25.0319,46.9987,21.04,68,20,5.14,MG,1722527403
45,souillac,-20.5167,57.5167,21.21,73,20,1.54,MU,1722527405
46,huaihua,27.5494,109.9592,24.31,96,89,1.55,CN,1722527406
47,christchurch,-43.5333,172.6333,2.17,87,75,3.58,NZ,1722527326
48,enewetak,11.3474,162.3373,28.51,75,44,3.77,MH,1722527408
49,bethel,41.3712,-73.414,31.67,67,0,2.06,US,1722527409
50,labytnangi,66.6572,66.4183,18.75,84,100,4.13,RU,1722527410
51,ciudad lazaro cardenas,17.9583,-102.2,28.04,66,99,1.86,MX,1722527412
52,jinchang,38.4953,102.1739,19.68,69,100,3.57,CN,1722527413
53,torres,-29.3353,-49.7269,31.03,72,3,4.63,BR,1722527414
54,punta arenas,-53.15,-70.9167,5.06,100,100,3.6,CL,1722527250
55,saint-florent-sur-cher,46.9955,2.2508,30.09,50,16,4.13,FR,1722527416
56,javanrud,34.7961,46.5172,29.53,12,0,4.64,IR,1722527417
57,ta`u,-14.2336,-169.5144,25.54,69,99,7.98,AS,1722527419
58,longyearbyen,78.2186,15.6401,13.91,62,0,1.54,SJ,1722527420
59,kalininsk,51.5,44.4758,21.72,41,63,2.65,RU,1722527422
60,talnakh,69.4865,88.3972,20.65,48,97,2.48,RU,1722527423
61,iqaluit,63.7506,-68.5145,7.85,61,40,4.63,CA,1722527425
62,itoman,26.1247,127.6694,30.22,82,20,3.09,JP,1722527426
63,tura,25.5198,90.2201,24.28,93,100,3.11,IN,1722527427
64,minas de marcona,-15.2119,-75.1103,17.64,57,15,3.35,PE,1722527428
65,sisimiut,66.9395,-53.6735,11.29,55,2,3.4,GL,1722527429
66,nurota,40.5614,65.6886,32.82,14,1,3.05,UZ,1722527430
67,bilibino,68.0546,166.4372,1.85,69,99,0.46,RU,1722527434
68,houghton,47.1219,-88.569,25.71,75,0,4.12,US,1722527435
69,vilyuchinsk,52.9306,158.4028,13.15,95,85,0.62,RU,1722527436
70,songea,-10.6833,35.65,18.31,34,0,2.27,TZ,1722527438
71,kristiansund,63.1115,7.732,18.03,81,75,3.6,NO,1722527439
72,yellowknife,62.456,-114.3525,13.01,71,40,5.14,CA,1722527399
73,haiku-pauwela,20.9219,-156.3051,22.36,83,20,3.6,US,1722527441
74,praia da vitoria,38.7333,-27.0667,27.14,69,40,2.72,PT,1722527442
75,malabar,-33.9667,151.25,10.98,87,100,3.6,AU,1722527444
76,sarmiento,-45.5882,-69.07,9.32,63,82,2.05,AR,1722527445
77,baiquan,47.5833,126.0833,20.14,63,86,4.61,CN,1722527446
78,mirny,62.5353,113.9611,8.24,69,35,1.35,RU,1722527447
79,neiafu,-18.65,-173.9833,22.38,94,20,3.6,TO,1722527448
80,laojunmiao,39.8333,97.7333,17.79,63,89,2.36,CN,1722527450
81,gereida,11.2811,25.1414,26.79,71,86,0.4,SD,1722527451
82,taroudant,30.4703,-8.877,39.36,20,26,9.03,MA,1722527452
83,saint john,45.2727,-66.0677,19.57,100,100,5.14,CA,1722527453
84,lajosmizse,47.0213,19.5617,33.86,22,0,2.06,HU,1722527454
85,lorengau,-2.0226,147.2712,27.65,82,34,4.0,PG,1722527455
86,invercargill,-46.4,168.35,2.23,93,99,1.33,NZ,1722527242
87,withernsea,53.7311,0.0335,23.14,85,43,5.71,GB,1722527458
88,yuzhno-kurilsk,44.0306,145.8556,15.98,98,100,3.24,RU,1722527459
89,whitehorse,60.7161,-135.0538,9.45,86,75,1.03,CA,1722527460
90,aykhal,66.0,111.5,8.24,59,14,2.14,RU,1722527461
91,alice,27.7523,-98.0697,30.69,76,40,6.69,US,1722527463
92,ulladulla,-35.35,150.4667,9.25,84,74,3.83,AU,1722527464
93,wailua homesteads,22.0669,-159.378,20.44,82,40,1.54,US,1722527465
94,sassandra,4.95,-6.0833,23.12,94,100,4.44,CI,1722527466
95,nabire,-3.3667,135.4833,24.58,94,99,0.92,ID,1722527467
96,jamestown,42.097,-79.2353,29.14,78,0,3.09,US,1722527410
97,holualoa,19.6228,-155.9522,20.14,96,86,1.81,US,1722527470
98,forecariah,9.4306,-13.0881,27.16,85,98,3.4,GN,1722527471
99,atafu village,-8.5421,-172.5159,27.68,71,100,7.58,TK,1722527472
100,utrik,11.2278,169.8474,27.97,80,67,3.19,MH,1722527473
101,ilulissat,69.2167,-51.1,3.01,100,100,3.09,GL,1722527474
102,tazovsky,67.4667,78.7,16.84,86,44,3.68,RU,1722527476
103,west island,-12.1568,96.8225,26.99,69,75,4.63,CC,1722527477
104,puerto ayora,-0.7393,-90.3518,21.98,80,13,3.69,EC,1722527478
105,portomaggiore,44.6985,11.8068,37.04,51,6,7.71,IT,1722527479
106,iguape,-24.7081,-47.5553,20.61,77,19,2.22,BR,1722527480
107,ust-nera,64.5667,143.2,4.14,99,100,2.73,RU,1722527482
108,kerikeri,-35.2268,173.9474,8.84,94,96,2.29,NZ,1722527483
109,port alfred,-33.5906,26.891,15.66,77,0,3.2,ZA,1722527484
110,cootamundra,-34.65,148.0333,3.3,90,0,3.21,AU,1722527485
111,aasiaat,68.7098,-52.8699,2.48,85,70,3.02,GL,1722527486
112,karkira,36.9292,6.5856,36.9,31,0,3.06,DZ,1722527488
113,edmundston,47.3737,-68.3251,24.86,83,100,4.63,CA,1722527489
114,sault ste. marie,46.5168,-84.3333,26.31,67,0,1.54,CA,1722527490
115,isafjordur,66.0755,-23.124,11.02,71,75,10.29,IS,1722527491
116,port mathurin,-19.6833,63.4167,22.82,73,1,4.65,MU,1722527492
117,south hedland,-20.4089,118.5983,19.96,77,70,4.12,AU,1722527493
118,muromtsevo,56.3724,75.2418,21.67,83,61,3.04,RU,1722527495
119,lebu,-37.6167,-73.65,11.93,91,100,17.26,CL,1722527496
120,susuman,62.7833,148.1667,1.09,88,91,2.04,RU,1722527497
121,soc trang,9.6033,105.98,26.43,88,59,2.16,VN,1722527498
122,lerwick,60.1545,-1.1494,16.0,79,10,4.0,GB,1722527500
123,college,64.8569,-147.8028,10.11,88,75,2.06,US,1722527501
124,avarua,-21.2078,-159.775,21.03,64,100,1.54,CK,1722527502
125,tommot,58.9564,126.2925,9.11,81,69,1.58,RU,1722527503
126,igarka,67.4667,86.5833,16.44,68,83,3.8,RU,1722527504
127,andergrove,-21.0833,149.1833,13.14,79,13,4.17,AU,1722527505
128,coronel suarez,-37.4547,-61.9334,17.25,86,100,5.35,AR,1722527507
129,flying fish cove,-10.4217,105.6791,24.82,78,75,4.63,CX,1722527509
130,fort bragg,35.139,-79.006,34.0,60,0,2.57,US,1722527510
131,turan,16.0678,108.2208,29.99,74,20,1.54,VN,1722527511
132,beidaihehaibin,39.8222,119.5181,25.02,94,1,1.33,CN,1722527513
133,koh kong,11.6175,102.9806,26.82,86,99,1.42,KH,1722527514
134,jiagedaqi,50.4167,124.1167,12.36,49,100,2.18,CN,1722527515
135,saldanha,-33.0117,17.9442,15.03,84,0,5.75,ZA,1722527516
136,greymouth,-42.4667,171.2,0.05,89,8,3.8,NZ,1722527517
137,galle,6.0367,80.217,28.85,85,77,0.45,LK,1722527519
138,quellon,-43.1167,-73.6167,8.81,92,100,7.49,CL,1722527520
139,chardara,41.2547,67.9692,34.82,23,56,2.79,KZ,1722527521
140,abbeville,50.1,1.8333,28.47,71,79,4.41,FR,1722527522
141,taksimo,56.3444,114.8794,17.31,83,100,0.56,RU,1722527523
142,remire-montjoly,4.9167,-52.2667,27.02,83,75,2.06,GF,1722527525
143,chestertown,39.209,-76.0666,35.21,57,0,2.13,US,1722527526
144,hithadhoo,-0.6,73.0833,28.63,78,29,5.09,MV,1722527527
145,hawaiian paradise park,19.5933,-154.9731,20.73,84,100,3.09,US,1722527528
146,sechura,-5.5569,-80.8222,22.69,61,5,3.87,PE,1722527529
147,ha giang,22.8333,104.9833,24.05,100,100,0.22,VN,1722527531
148,ushuaia,-54.8,-68.3,3.81,81,100,1.03,AR,1722527532
149,uturoa,-16.7333,-151.4333,23.49,60,7,6.86,PF,1722527533
150,conduaga,8.862,117.4893,26.4,85,99,1.23,PH,1722527534
151,okha,53.5739,142.9478,13.09,98,100,4.86,RU,1722527536
152,st. john's,47.5649,-52.7093,30.15,62,21,1.79,CA,1722527538
153,padangsidempuan,1.3667,99.2667,22.38,93,49,0.83,ID,1722527539
154,veraval,20.9,70.3667,27.74,86,99,9.49,IN,1722527540
155,klyuchi,52.2667,79.1667,25.81,41,66,2.98,RU,1722527541
156,teknaf,20.8624,92.3058,26.27,90,100,6.32,BD,1722527544
157,inhambane,-23.865,35.3833,22.99,68,40,2.24,MZ,1722527545
158,san patricio,28.017,-97.5169,32.17,55,6,4.8,US,1722527546
159,killarney vale,-33.365,151.4594,10.26,88,64,1.34,AU,1722527547
160,kiffa,16.6166,-11.4045,38.71,26,87,7.0,MR,1722527548
161,la ronge,55.1001,-105.2842,18.14,68,75,8.75,CA,1722527550
162,codrington,-38.2667,141.9667,5.58,80,64,4.22,AU,1722527551
163,bikenibeu village,1.3673,173.1241,26.98,89,20,1.03,KI,1722527552
164,touros,-5.1989,-35.4608,27.92,53,13,8.99,BR,1722527554
165,thompson,55.7435,-97.8558,22.09,68,40,4.63,CA,1722527555
166,mizdah,31.4451,12.9801,35.39,14,0,6.46,LY,1722527557
167,huatabampo,26.8333,-109.6333,32.0,55,94,3.97,MX,1722527461
168,port augusta,-32.5,137.7667,7.92,49,33,3.42,AU,1722527559
169,carutapera,-1.195,-46.02,31.2,50,23,4.57,BR,1722527560
170,midvagur,62.0511,-7.1939,12.46,94,100,5.66,FO,1722527561
171,mudon,16.2578,97.7164,24.63,95,100,2.31,MM,1722527563
172,kodinsk,58.6881,99.1844,10.99,94,85,1.24,RU,1722527564
173,port elizabeth,-33.918,25.5701,16.16,75,0,3.09,ZA,1722527565
174,cole harbour,44.6724,-63.4751,21.66,98,100,3.6,CA,1722527566
175,ambon,-3.6954,128.1814,26.6,95,40,2.06,ID,1722527567
176,murzuq,25.9155,13.9184,36.63,15,5,5.39,LY,1722527568
177,badger,64.8,-147.5333,10.07,87,75,2.06,US,1722527570
178,kodiak,57.79,-152.4072,6.73,93,0,2.57,US,1722527571
179,tomatlan,19.9333,-105.25,31.33,57,84,0.35,MX,1722527572
180,klaksvik,62.2266,-6.589,12.51,97,100,10.38,FO,1722527573
181,gwanda,-20.9333,29.0,21.46,27,0,4.91,ZW,1722527574
182,nassau,40.7507,-73.5829,33.36,56,0,1.54,US,1722527576
183,isetskoye,56.4858,65.3226,19.12,93,71,2.93,RU,1722527578
184,mala vyska,48.6431,31.6366,31.47,19,33,6.09,UA,1722527579
185,kulu,39.0951,33.0799,28.55,24,0,3.85,TR,1722527580
186,piton saint-leu,-21.2196,55.3151,20.06,68,0,1.03,RE,1722527582
187,geraldton,-28.7667,114.6,9.23,87,40,2.57,AU,1722527583
188,qaqortoq,60.7167,-46.0333,7.84,70,7,4.31,GL,1722527584
189,nalut,30.3333,10.85,37.74,14,0,8.68,LY,1722527585
190,varna,43.2167,27.9167,28.82,41,0,5.66,BG,1722527586
191,al bawiti,28.3492,28.8659,36.96,17,44,5.82,EG,1722527588
192,saint-philippe,-21.3585,55.7679,21.77,66,31,3.55,RE,1722527589
193,nova sintra,14.8667,-24.7167,25.34,73,26,6.03,CV,1722527590
194,howrah,22.5892,88.3103,28.0,100,100,6.17,IN,1722527591
195,chonchi,-42.6128,-73.8092,8.56,96,100,3.95,CL,1722527592
196,manaure,11.7751,-72.4445,32.01,53,75,3.38,CO,1722527595
197,sur,22.5667,59.5289,33.66,53,100,5.23,OM,1722527596
198,salalah,17.0151,54.0924,25.05,100,100,1.54,OM,1722527597
199,turkmenbasy,40.0222,52.9552,29.43,34,0,10.8,TM,1722527598
200,moapa valley,36.5805,-114.4703,34.6,25,100,3.99,US,1722527599
201,antofagasta,-23.65,-70.4,18.6,65,34,2.89,CL,1722527601
202,margate,51.3813,1.3862,22.95,75,59,0.45,GB,1722527602
203,alofi,-19.0595,-169.9187,17.94,94,75,2.06,NU,1722527603
204,wainwright,52.839,-110.8572,20.22,47,41,3.64,CA,1722527604
205,nar'yan-mar,67.6713,53.087,18.83,84,26,4.89,RU,1722527605
206,saint croix,17.7397,-64.7388,26.25,94,75,1.54,VI,1722527606
207,estevan,49.1334,-102.9842,30.19,41,0,4.12,CA,1722527356
208,prince rupert,54.3161,-130.3201,13.05,94,100,1.03,CA,1722527609
209,beau vallon,-20.4189,57.6953,21.13,73,20,1.54,MU,1722527610
210,labrador city,52.9463,-66.9114,22.88,48,75,3.09,CA,1722527611
211,guiyang,26.5833,106.7167,22.27,94,20,1.0,CN,1722527613
212,fale old settlement,-9.3852,-171.2468,27.29,71,100,6.45,TK,1722527615
213,sao jose da coroa grande,-8.8978,-35.1478,25.94,68,80,6.63,BR,1722527616
214,faya-largeau,17.9257,19.1043,33.01,41,100,4.17,TD,1722527617
215,hashtrud,37.4779,47.0508,26.41,27,2,5.42,IR,1722527618
216,thanh hoa,19.8,105.7667,25.76,82,100,2.79,VN,1722527620
217,lae,-6.7221,146.9847,22.33,87,53,0.74,PG,1722527621
218,tekkali,18.6167,84.2333,27.46,73,100,3.21,IN,1722527622
219,mount isa,-20.7333,139.5,7.87,71,0,0.0,AU,1722527623
220,lauro de freitas,-12.8944,-38.3272,27.01,65,40,4.12,BR,1722527624
221,fort st. john,56.2499,-120.8529,15.94,63,20,4.63,CA,1722527626
222,tabou,4.423,-7.3528,23.83,88,100,5.74,CI,1722527627
223,gagliano del capo,39.8442,18.3695,29.34,48,0,4.12,IT,1722527628
224,medina del campo,41.3124,-4.9141,35.44,17,0,4.16,ES,1722527629
225,bathsheba,13.2167,-59.5167,31.34,74,75,4.12,BB,1722527630
226,vadso,70.0744,29.7487,13.49,94,100,8.75,NO,1722527632
227,tahe,52.3333,124.7333,9.66,63,2,1.46,CN,1722527633
228,quiberon,47.4841,-3.1196,27.84,83,44,7.84,FR,1722527634
229,de queen,34.0379,-94.3413,30.03,78,40,4.12,US,1722527635
230,laguna,38.421,-121.4238,28.94,59,0,2.57,US,1722527636
231,afaahiti,-17.75,-149.2833,16.93,59,55,5.65,PF,1722527638
232,east london,-33.0153,27.9116,17.52,39,0,3.09,ZA,1722527639
233,bamboo flat,11.7,92.7167,28.05,89,75,2.06,IN,1722527640
234,kijang,35.2442,129.2139,27.85,90,0,3.24,KR,1722527641
235,brotas,-22.2842,-48.1267,26.75,23,0,3.01,BR,1722527642
236,robertsport,6.7533,-11.3686,25.19,85,100,7.62,LR,1722527643
237,sabang,5.8933,95.3214,29.03,75,100,5.28,ID,1722527645
238,karonga,-9.9333,33.9333,22.17,61,0,1.91,MW,1722527646
239,al jawf,29.5,38.75,37.04,15,65,2.47,SA,1722527648
240,petropavlovsk-kamchatsky,53.0452,158.6483,12.33,100,75,1.0,RU,1722527649
241,camara de lobos,32.6333,-16.9667,29.84,73,20,4.63,PT,1722527651
242,as samawah,31.332,45.2944,42.23,11,0,9.26,IQ,1722527652
243,constitucion,-35.3333,-72.4167,12.53,86,100,17.0,CL,1722527653
244,guarapari,-20.6667,-40.4975,23.27,58,12,4.16,BR,1722527654
245,auki,-8.7676,160.7034,24.16,91,41,1.59,SB,1722527656
246,morehead city,34.7229,-76.726,32.79,79,0,6.17,US,1722527657
247,uruzgan,32.8333,66.0,31.8,11,4,3.4,AF,1722527658
248,puerto aysen,-45.4,-72.7,7.28,100,100,0.74,CL,1722527659
249,chengde,40.9725,117.9361,22.7,88,6,0.48,CN,1722527660
250,tukrah,32.5341,20.5791,28.27,58,0,5.36,LY,1722527661
251,port saint john's,-31.6229,29.5448,17.55,65,0,6.23,ZA,1722527663
252,lihue,21.9789,-159.3672,20.77,88,40,1.54,US,1722527664
253,lompoc,34.6391,-120.4579,13.4,98,100,0.0,US,1722527526
254,plaza huincul,-38.926,-69.2086,12.3,10,100,1.79,AR,1722527666
255,juneau,58.3019,-134.4197,12.0,98,75,3.09,US,1722527667
256,tsiombe,-25.3,45.4833,17.77,65,9,2.11,MG,1722527669
257,malanje,-9.5402,16.341,31.94,18,43,1.12,AO,1722527670
258,reggane,26.7158,0.1714,43.44,6,0,8.97,DZ,1722527671
259,zapata,26.9073,-99.2714,31.06,62,0,4.12,US,1722527672
260,broken hill,-31.95,141.4333,8.16,46,17,4.35,AU,1722527673
261,iskateley,67.6803,53.1512,18.86,84,25,4.95,RU,1722527674
262,saipan,15.1355,145.701,29.39,84,40,3.6,MP,1722527676
263,shakawe,-18.3667,21.85,26.63,12,4,1.29,BW,1722527677
264,namsos,64.4662,11.4957,15.95,63,75,3.09,NO,1722527678
265,leiyang,26.4024,112.8591,27.23,82,44,2.69,CN,1722527679
266,alice springs,-23.7,133.8833,4.75,48,6,2.06,AU,1722527680
267,francistown,-21.17,27.5079,23.43,24,0,6.88,BW,1722527682
268,la manga del mar menor,37.6413,-0.7165,33.36,74,0,3.09,ES,1722527683
269,toliara,-23.35,43.6667,21.04,57,0,8.36,MG,1722527684
270,zhezqazghan,47.7833,67.7667,33.32,13,0,2.0,KZ,1722527685
271,rio gallegos,-51.6226,-69.2181,5.03,93,75,2.57,AR,1722527686
272,port lincoln,-34.7333,135.8667,12.75,45,100,8.99,AU,1722527688
273,keflavik,64.0049,-22.5624,12.24,87,75,1.54,IS,1722527689
274,arraial do cabo,-22.9661,-42.0278,24.92,53,20,7.72,BR,1722527690
275,salsipuedes,19.4055,-70.3799,24.84,76,94,2.22,DO,1722527691
276,angaur state,6.906,134.13,28.85,75,87,4.94,PW,1722527692
277,antsiranana,-12.2787,49.2917,23.51,72,1,7.62,MG,1722527693
278,hacibektas,38.9408,34.5577,27.77,21,0,4.12,TR,1722527695
279,tionk essil,12.7856,-16.5217,31.03,68,94,5.99,SN,1722527696
280,sitka,57.0531,-135.33,12.94,88,75,3.09,US,1722527697
281,brisas de zicatela,15.8369,-97.0419,29.8,62,98,1.96,MX,1722527698
282,iyidere,41.0119,40.3619,24.98,75,48,0.96,TR,1722527699
283,kattivakkam,13.2167,80.3167,31.21,79,100,4.39,IN,1722527701
284,motueka,-41.1333,173.0167,3.94,81,2,2.82,NZ,1722527702
285,happy valley-goose bay,53.3168,-60.3315,21.17,88,75,1.03,CA,1722527703
286,yarmouth,41.7057,-70.2286,31.19,74,40,4.63,US,1722527704
287,yamada,39.4667,141.95,20.57,97,67,2.02,JP,1722527705
288,poronaysk,49.2167,143.1167,13.86,99,100,2.18,RU,1722527707
289,knoxville,35.9606,-83.9207,30.15,77,75,3.6,US,1722527708
290,kilindoni,-7.9139,39.6668,25.37,70,2,7.42,TZ,1722527709
291,polyarnyy,69.1989,33.4478,11.77,90,100,5.28,RU,1722527710
292,forster,-32.1667,152.5167,10.21,92,100,5.58,AU,1722527711
293,bandarbeyla,9.4942,50.8122,25.34,81,11,15.96,SO,1722527713
294,mossendjo,-2.9506,12.7261,29.79,34,18,1.92,CG,1722527714
295,bemowo,52.2445,20.9083,29.3,35,0,6.17,PL,1722527716
296,onega,63.9061,38.1404,17.5,75,79,3.33,RU,1722527717
297,sharkan,57.2989,53.8712,17.67,82,61,2.69,RU,1722527719
298,mont-dore,-22.2833,166.5833,20.56,99,100,1.98,NC,1722527720
299,shizuishan,39.2333,106.7694,27.25,40,100,9.31,CN,1722527721
300,ujae,8.9322,165.7642,28.32,77,49,4.54,MH,1722527722
301,homer,59.6425,-151.5483,14.47,75,86,2.93,US,1722527723
302,kavaratti,10.5669,72.642,27.45,86,100,6.44,IN,1722527725
303,kill devil hills,36.0307,-75.676,32.0,61,0,3.09,US,1722527726
304,kapuskasing,49.4169,-82.4331,25.05,65,20,4.63,CA,1722527727
305,puerto armuelles,8.2833,-82.8667,27.99,82,97,1.79,PA,1722527728
306,waitara,-38.925,174.25,8.61,81,98,7.29,NZ,1722527729
307,kailua-kona,19.6406,-155.9956,22.0,94,88,1.98,US,1722527731
308,medicine hat,50.0501,-110.6683,23.45,41,20,5.66,CA,1722527732
309,lata,40.1629,-8.3327,28.05,50,1,5.06,PT,1722527733
310,hillvue,-31.1244,150.915,1.95,100,4,1.54,AU,1722527734
311,oban,56.4127,-5.4706,20.21,73,51,2.51,GB,1722527735
312,nuku'alofa,-21.1333,-175.2,19.19,94,20,2.06,TO,1722527736
313,mangaratiba,-22.9597,-44.0406,26.48,73,2,5.29,BR,1722527738
314,candido mendes,-1.4467,-45.7167,31.92,45,28,2.18,BR,1722527739
315,manokwari,-0.8667,134.0833,25.94,83,94,1.82,ID,1722527740
316,umm kaddadah,13.6017,26.6876,29.5,47,100,9.05,SD,1722527741
317,tan-tan,28.438,-11.1032,25.97,69,20,8.75,MA,1722527742
318,huarmey,-10.0681,-78.1522,20.81,72,32,3.39,PE,1722527744
319,veshenskaya,49.6303,41.7334,26.55,26,88,4.02,RU,1722527745
320,namdrik,5.5994,168.1028,28.25,77,46,6.22,MH,1722527746
321,placido de castro,-10.3353,-67.1856,37.06,20,0,2.05,BR,1722527747
322,griffith,41.5284,-87.4237,27.38,88,40,2.06,US,1722527748
323,tyazhinskiy,56.116,88.524,17.33,84,44,1.58,RU,1722527750
324,tralee,52.2704,-9.7026,20.14,73,40,5.66,IE,1722527751
325,kone,-21.0595,164.8658,17.72,80,100,2.28,NC,1722527752
326,tingi,-11.3,35.0333,15.36,57,0,0.75,TZ,1722527753
327,gournay-en-bray,49.4828,1.7247,28.02,79,20,5.08,FR,1722527754
328,gejiu,23.306,103.1635,15.73,98,100,1.52,CN,1722527755
329,saudarkrokur,65.7461,-19.6394,13.92,73,100,2.2,IS,1722527757
330,itarantim,-15.6597,-40.0656,24.76,62,92,3.17,BR,1722527758
331,bubaque,11.2833,-15.8333,26.96,83,91,6.0,GW,1722527759
332,thames,-37.1333,175.5333,9.8,77,99,4.25,NZ,1722527760
333,kapa'a,22.0752,-159.319,21.18,82,40,1.54,US,1722527761
334,katsuura,35.1333,140.3,23.92,97,17,3.74,JP,1722527763
335,dalbandin,28.8947,64.4101,37.68,6,100,4.29,PK,1722527764
336,island harbour,50.724,-1.2758,27.24,78,32,4.82,GB,1722527765
337,port macquarie,-31.4333,152.9167,11.71,81,93,1.79,AU,1722527531
338,wuwei,37.9281,102.6414,19.05,75,100,3.42,CN,1722527767
339,harnoli,32.2792,71.5539,31.47,67,77,5.94,PK,1722527769
340,kirakira,-10.4544,161.9205,25.52,87,21,3.98,SB,1722527770
341,moroni,-11.7022,43.2551,24.7,75,15,6.02,KM,1722527771
342,kolwezi,-10.7148,25.4667,23.2,17,0,2.82,CD,1722527772
343,niquero,20.0431,-77.5828,32.49,55,54,3.35,CU,1722527774
344,saint-joseph,-21.3667,55.6167,21.21,65,25,2.15,RE,1722527776
345,qarazhal,48.0078,70.7903,32.72,20,51,4.02,KZ,1722527777
346,novi pazar,43.1367,20.5122,31.88,25,0,1.27,RS,1722527778
347,san luis,-33.295,-66.3356,21.1,39,100,2.33,AR,1722527780
348,siwa oasis,29.2041,25.5195,37.66,17,1,4.91,EG,1722527781
349,likasi,-10.9814,26.7333,21.97,19,0,1.91,CD,1722527782
350,hasaki,35.7333,140.8333,26.22,90,12,3.3,JP,1722527783
351,turbat,26.0023,63.044,31.11,69,100,5.69,PK,1722527784
352,vina del mar,-33.0246,-71.5518,13.88,82,100,6.17,CL,1722527786
353,macusani,-14.0833,-70.4333,10.64,30,0,1.1,PE,1722527787
354,villa elisa,-25.3667,-57.6167,31.33,45,0,7.72,PY,1722527788
355,egilsstadir,65.2653,-14.3948,12.95,76,75,2.57,IS,1722527789
356,udayagiri,20.1333,84.3833,21.9,95,100,2.21,IN,1722527790
357,aqaba,29.5267,35.0078,38.92,25,0,6.17,JO,1722527792
358,crane,31.3974,-102.3501,29.1,50,0,7.26,US,1722527793
359,celestun,20.8667,-90.4,31.27,57,8,1.24,MX,1722527794
360,port-gentil,-0.7193,8.7815,24.35,72,99,6.84,GA,1722527795
361,tuy hoa,13.0833,109.3,26.67,83,74,2.28,VN,1722527796
362,kharkhorin,47.1975,102.8238,14.04,89,98,2.54,MN,1722527798
363,vung tau,10.346,107.0843,27.44,82,19,5.4,VN,1722527799
364,cururupu,-1.8283,-44.8683,30.98,49,76,2.68,BR,1722527800
365,olinda,-8.0089,-34.8553,28.85,58,40,8.23,BR,1722527801
366,leh,34.1667,77.5833,14.86,66,63,2.47,IN,1722527803
367,meulaboh,4.1363,96.1285,26.7,84,100,1.99,ID,1722527804
368,palmer,42.1584,-72.3287,31.03,60,20,3.6,US,1722527805
369,tekeli,44.83,78.8239,23.33,28,0,5.06,KZ,1722527806
370,colares,38.7992,-9.4469,26.55,63,20,9.26,PT,1722527807
371,kushiro,42.975,144.3747,19.53,100,100,1.03,JP,1722527808
372,hermanus,-34.4187,19.2345,13.22,82,2,0.93,ZA,1722527810
373,hotan,37.0997,79.9269,34.31,18,96,6.48,CN,1722527811
374,dudinka,69.4058,86.1778,18.99,49,98,4.24,RU,1722527558
375,ouargla,31.9493,5.325,43.04,10,0,2.06,DZ,1722527813
376,bangassou,4.7413,22.8184,24.82,76,100,1.29,CF,1722527814
377,qamdo,31.1667,97.2333,10.21,55,91,1.87,CN,1722527816
378,kokologo,12.1897,-1.8856,30.92,62,93,4.51,BF,1722527817
379,perbaungan,3.5679,98.956,26.06,92,100,1.44,ID,1722527818
380,isiro,2.7739,27.616,21.39,92,89,1.81,CD,1722527819
381,alo,6.5486,4.2686,26.24,80,54,5.82,NG,1722527820
382,keokuk,40.3973,-91.3849,27.93,78,71,4.17,US,1722527821
383,kerimaki,61.9167,29.2833,16.97,88,67,3.6,FI,1722527823
384,altamira,-3.2033,-52.2064,31.05,66,75,3.6,BR,1722527824
385,waiuku,-37.25,174.75,10.7,86,100,3.2,NZ,1722527825
386,hillsborough,37.5741,-122.3794,19.04,91,75,3.6,US,1722527826
387,taoudenni,22.6783,-3.9836,45.66,9,41,4.7,ML,1722527827
388,swan hill,-35.3378,143.5544,5.64,69,96,3.2,AU,1722527829
389,ailuk,10.2197,169.9797,28.24,78,23,3.2,MH,1722527830
390,villa de san antonio,14.3167,-87.6167,24.49,83,100,1.16,HN,1722527831
391,rio grande,-32.035,-52.0986,21.08,75,36,6.19,BR,1722527832
392,kaedi,16.1465,-13.5047,38.39,25,53,8.29,MR,1722527833
393,dunedin,-45.8742,170.5036,6.56,83,100,1.34,NZ,1722527690
394,east ballina,-28.8667,153.5833,7.67,79,13,5.41,AU,1722527836
395,weno,7.4515,151.8468,25.97,89,100,3.09,FM,1722527837
396,caxias,38.7031,-9.2767,26.63,62,20,9.26,PT,1722527839
397,atbasar,51.8,68.3333,22.19,61,84,3.96,KZ,1722527840
398,contamana,-7.3333,-75.0167,35.68,30,3,1.86,PE,1722527842
399,carnarvon,-24.8667,113.6333,17.33,64,0,8.94,AU,1722527843
400,baruun-urt,46.6806,113.2792,16.6,91,76,3.64,MN,1722527844
401,new norfolk,-42.7826,147.0587,5.95,98,90,0.96,AU,1722527845
402,shimoda,34.6667,138.95,25.06,84,7,2.79,JP,1722527846
403,north platte,41.1239,-100.7654,28.88,55,0,1.34,US,1722527848
404,shubarshi,48.5872,57.1869,28.23,25,27,5.64,KZ,1722527849
405,luau,-10.7073,22.2247,29.6,12,29,2.11,AO,1722527850
406,las lomitas,-24.7096,-60.593,34.79,21,6,9.09,AR,1722527851
407,urangan,-25.3,152.9,14.14,73,0,5.24,AU,1722527852
408,lycksele,64.5954,18.6735,16.93,72,97,6.17,SE,1722527853
409,torit,4.4133,32.5678,21.71,88,87,1.37,SS,1722527855
410,kidal,18.4411,1.4078,36.28,33,3,2.16,ML,1722527856
411,ornskoldsvik,63.2909,18.7153,15.53,82,100,5.66,SE,1722527857
412,mersa matruh,31.3525,27.2453,30.11,58,0,4.63,EG,1722527858
413,karratha,-20.7377,116.8463,19.9,66,95,6.24,AU,1722527860
414,conceicao da barra,-18.5933,-39.7322,25.95,54,22,5.74,BR,1722527861
415,el nido,11.1858,119.3956,27.3,92,100,1.53,PH,1722527862
416,cabo san lucas,22.8909,-109.9124,30.1,76,75,3.6,MX,1722527454
417,bela,25.9333,81.9833,33.19,61,100,3.14,IN,1722527864
418,hobyo,5.3505,48.5268,25.33,77,62,11.76,SO,1722527865
419,usogorsk,63.4106,48.6872,17.44,90,99,1.86,RU,1722527867
420,callao,-12.0667,-77.15,24.12,80,28,5.2,PE,1722527868
421,portland,45.5234,-122.6762,23.98,77,40,2.06,US,1722527478
422,karabar,-35.3753,149.2308,1.36,93,5,2.06,AU,1722527870
423,santa terezinha,-29.9002,-50.0904,16.99,78,0,5.7,BR,1722527871
424,lundazi,-12.2929,33.1782,19.24,34,0,2.97,ZM,1722527873
425,kimbe,-5.5502,150.1429,23.97,92,41,2.49,PG,1722527874
426,north battleford,52.7834,-108.2847,20.78,68,0,4.12,CA,1722527875
427,chita,52.0333,113.55,11.94,67,87,3.0,RU,1722527876
428,belle fourche,44.6714,-103.8522,31.16,23,0,2.6,US,1722527877
429,hegang,47.4,130.3667,18.57,96,99,1.74,CN,1722527879
430,tindouf,27.6711,-8.1474,44.25,7,0,10.29,DZ,1722527880
431,la passe,45.5549,-0.8967,30.13,69,0,5.29,FR,1722527881
432,mossel bay,-34.1831,22.146,12.96,73,0,1.96,ZA,1722527882
433,ponta delgada,37.7333,-25.6667,24.4,78,20,2.06,PT,1722527883
434,kostanay,53.1667,63.5833,22.16,73,20,2.0,KZ,1722527884
435,lakhtar,22.85,71.7833,28.86,77,100,7.84,IN,1722527886
436,vilyuysk,63.7553,121.6247,7.66,66,5,1.98,RU,1722527888
437,vytegra,61.0064,36.4481,18.34,74,97,2.05,RU,1722527889
438,tysmenytsya,48.9022,24.8448,24.42,50,88,5.38,UA,1722527890
439,san antonio de pale,-1.4014,5.6325,22.61,74,98,4.87,GQ,1722527892
440,pozzallo,36.7305,14.8499,33.36,53,0,4.05,IT,1722527893
441,pacific grove,36.6177,-121.9166,16.12,97,75,2.68,US,1722527894
442,at taj,24.2049,23.2857,37.92,10,0,5.28,LY,1722527895
443,cepu,-7.1475,111.5906,25.16,81,28,1.68,ID,1722527896
444,malvan,16.0667,73.4667,26.68,85,100,9.6,IN,1722527898
445,vila velha,-20.3297,-40.2925,24.97,77,75,6.69,BR,1722527899
446,tazacorte,28.629,-17.9293,25.08,80,20,8.23,ES,1722527900
447,mpika,-11.8343,31.4529,18.69,27,0,2.7,ZM,1722527901
448,manicore,-5.8092,-61.3003,38.64,18,1,2.14,BR,1722527902
449,pamandzi,-12.7967,45.2794,24.88,69,20,4.12,YT,1722527904
450,nguigmi,14.2495,13.1092,25.77,74,100,6.81,NE,1722527905
451,sao miguel,-5.4667,-35.3667,29.43,58,9,9.91,BR,1722527906
452,calatayud,41.3535,-1.6432,38.5,10,0,1.8,ES,1722527907
453,kruisfontein,-34.0033,24.7314,13.27,79,0,1.73,ZA,1722527908
454,bodaybo,57.8506,114.1933,15.93,58,100,1.85,RU,1722527910
455,galliano,29.4422,-90.2992,33.89,58,40,0.0,US,1722527911
456,mikhaylovka,50.06,43.2379,26.55,27,66,5.71,RU,1722527912
457,uthal,25.8072,66.6219,29.7,81,100,7.96,PK,1722527913
458,dzhangala,49.2167,50.3333,27.71,30,88,6.39,KZ,1722527914
459,california,38.3004,-76.5074,32.04,69,0,1.54,US,1722527648
460,k'olito,7.3167,38.0833,16.75,89,60,3.28,ET,1722527917
461,siuna,13.7332,-84.7773,25.54,89,100,1.45,NI,1722527918
462,luanda,-8.8368,13.2343,24.0,64,20,4.63,AO,1722527919
463,ulsteinvik,62.3432,5.8487,17.5,73,86,0.45,NO,1722527920
464,bosaso,11.2842,49.1816,33.87,48,42,1.32,SO,1722527921
465,fortaleza,-3.7227,-38.5247,31.07,66,20,6.17,BR,1722527840
466,rudnya,54.947,31.0934,18.18,72,90,4.81,RU,1722527924
467,stjordalshalsen,63.4681,10.9262,17.18,55,40,3.6,NO,1722527925
468,pangody,65.85,74.4859,20.41,59,61,2.35,RU,1722527926
469,uyuni,-20.4597,-66.825,9.2,16,0,7.02,BO,1722527927
470,alotau,-10.3069,150.4462,23.21,95,97,2.83,PG,1722527930
471,childress,34.4264,-100.204,32.18,40,0,5.14,US,1722527931
472,thunder bay,48.4001,-89.3168,24.95,65,75,2.57,CA,1722527932
473,sarandi del yi,-33.35,-55.6333,22.81,72,99,7.55,UY,1722527933
474,kyshtovka,56.555,76.6271,21.49,86,62,2.77,RU,1722527934
475,lagoa,39.05,-27.9833,23.84,70,25,4.02,PT,1722527936
476,stornoway,58.2093,-6.3865,16.69,85,75,9.26,GB,1722527937
477,novodvinsk,64.4165,40.8122,16.86,75,100,2.21,RU,1722527938
478,qarqaraly,49.4058,75.4742,23.04,40,0,3.76,KZ,1722527939
479,ghat,24.9647,10.1728,37.05,12,77,5.05,LY,1722527940
480,walvis bay,-22.9575,14.5053,17.53,59,0,3.6,NA,1722527942
481,brumunddal,60.881,10.9395,22.01,39,31,1.37,NO,1722527943
482,phalaborwa,-23.943,31.1411,23.6,46,2,1.45,ZA,1722527944
483,ad dabbah,18.05,30.95,35.62,35,85,5.47,SD,1722527945
484,soio,-6.1349,12.3689,21.79,72,71,4.16,AO,1722527946
485,georgetown,5.4112,100.3354,28.96,74,20,1.54,MY,1722527948
486,nea anchialos,39.2833,22.8167,31.72,38,0,5.14,GR,1722527949
487,minab,27.1467,57.0801,34.98,55,40,2.98,IR,1722527950
488,kuta,-8.7233,115.1723,26.97,89,20,4.12,ID,1722527951
489,shadegan,30.6497,48.6647,44.97,8,0,7.6,IR,1722527952
490,beaufort west,-32.3567,22.583,14.93,22,44,2.41,ZA,1722527954
491,puerto baquerizo moreno,-0.9,-89.6,21.55,88,75,4.12,EC,1722527955
492,boyolangu,-8.1181,111.8935,23.05,98,42,0.62,ID,1722527956
493,vrangel',42.7297,133.0839,20.49,99,62,1.77,RU,1722527957
494,tyukhtet,56.5389,89.3011,16.77,89,91,1.96,RU,1722527958
495,micheweni,-4.9667,39.8333,24.9,75,10,7.73,TZ,1722527960
496,lengshuitan,26.4111,111.5956,26.02,86,17,2.53,CN,1722527961
497,ghadamis,30.1337,9.5007,39.25,13,0,5.65,LY,1722527962
498,kyzyl-mazhalyk,51.1333,90.6,21.66,43,100,0.63,RU,1722527963
499,fort mcmurray,56.7268,-111.381,16.77,72,0,3.09,CA,1722527964
500,pisco,-13.7,-76.2167,17.23,88,100,2.06,PE,1722527965
501,darab,28.7519,54.5444,29.61,46,90,3.43,IR,1722527967
502,melfort,52.8667,-104.6177,19.07,63,2,4.63,CA,1722527968
503,taytay,14.5678,121.1394,27.96,89,40,2.57,PH,1722527969
504,kirensk,57.7853,108.1119,16.28,61,100,0.5,RU,1722527970
505,jebba,9.1333,4.8333,30.03,67,72,2.05,NG,1722527971
506,kalinkavichy,52.1323,29.3257,23.02,50,7,4.31,BY,1722527973
507,jolo,6.05,121.0167,24.95,89,98,0.83,PH,1722527974
508,domanivka,47.6319,30.9885,32.54,18,20,4.8,UA,1722527975
509,bichura,50.5881,107.6022,18.01,93,91,1.39,RU,1722527976
510,west fargo,46.875,-96.9004,25.01,68,0,3.6,US,1722527722
511,castelnaudary,43.3183,1.9545,29.66,40,1,5.55,FR,1722527978
512,acapulco de juarez,16.8634,-99.8901,27.47,64,97,1.32,MX,1722527696
513,bengkulu,-3.8004,102.2655,24.58,92,29,3.12,ID,1722527981
514,cidreira,-30.1811,-50.2056,17.7,72,2,5.66,BR,1722527982
515,bashanet,-4.2333,35.4167,14.93,37,1,2.4,TZ,1722527983
516,ustyuzhna,58.8394,36.4321,17.17,88,96,2.84,RU,1722527984
517,constantia,44.1833,28.65,29.38,49,32,7.53,RO,1722527986
518,enoch,37.7733,-113.0244,27.49,14,45,1.8,US,1722527987
519,hameenlinna,60.996,24.4643,16.5,87,100,3.65,FI,1722527988
520,marang,5.2056,103.2059,25.95,87,100,1.58,MY,1722527989
521,ilomantsi,62.6716,30.9328,19.27,70,89,1.82,FI,1722527990
522,mount gambier,-37.8333,140.7667,5.87,73,12,3.64,AU,1722527991
523,alaghsas,17.0187,8.0168,32.94,46,20,5.14,NE,1722527993
524,ciutadella,40.0011,3.8414,31.45,55,0,0.57,ES,1722527994
525,baardheere,2.3446,42.2764,28.48,55,83,9.63,SO,1722527995
526,talalayivka,50.9578,31.9209,26.54,30,0,6.12,UA,1722527996
527,ancud,-41.8697,-73.8203,8.63,92,100,7.03,CL,1722527997
528,aketi,2.7388,23.7833,28.13,66,80,1.54,CD,1722527999
529,tual,-5.6667,132.75,25.38,86,95,9.6,ID,1722528000
530,masingbi,8.7833,-11.95,25.18,94,98,2.66,SL,1722528001
531,awjilah,29.1081,21.2869,37.19,17,0,5.34,LY,1722528003
532,martapura,-3.4167,114.85,27.05,89,20,1.03,ID,1722528004
533,sonoita,31.85,-112.8333,31.21,48,30,2.39,MX,1722528006
534,nagqu,31.5,92.0,6.47,74,78,2.14,CN,1722528008
535,roma,43.2128,-75.4557,29.82,67,18,0.89,US,1722528009
536,sale,34.0389,-6.8166,30.35,73,35,4.12,MA,1722528010
537,dapa,9.7594,126.0531,27.55,78,25,2.81,PH,1722528012
538,port hedland,-20.3167,118.5667,20.03,77,52,4.12,AU,1722528013
539,mecca,21.4267,39.8261,34.49,47,12,3.56,SA,1722528011
540,conception bay south,47.4999,-52.9981,30.02,62,34,4.54,CA,1722528015
541,coquimbo,-29.9533,-71.3436,14.85,82,100,2.06,CL,1722528016
542,amos,48.5669,-78.1162,28.38,44,1,3.6,CA,1722528018
543,castillos,-34.1667,-53.8333,23.85,56,61,4.29,UY,1722528019
544,eldorado at santa fe,35.5264,-105.9347,28.79,35,100,2.68,US,1722528020
545,newman,37.3138,-121.0208,27.35,29,92,1.64,US,1722528022
546,gadzhiyevo,69.2551,33.3362,11.11,93,97,5.77,RU,1722528023
547,cadale,2.7603,46.3222,25.07,81,91,9.03,SO,1722528024
548,scottsboro,34.6723,-86.0341,32.68,66,40,3.09,US,1722528025
549,boa vista,2.8197,-60.6733,30.99,58,40,3.6,BR,1722527793
550,ocean city,39.2776,-74.5746,33.43,67,0,1.34,US,1722527951
551,levuka,50.1834,-105.4011,22.85,56,20,4.63,CA,1722528029
552,haverfordwest,51.8017,-4.9691,24.77,68,26,3.77,GB,1722528030
553,colby,39.3958,-101.0524,29.62,50,0,4.02,US,1722528031
554,nadi,-17.8,177.4167,21.0,83,20,2.57,FJ,1722528032
555,port blair,11.6667,92.75,28.02,89,75,2.06,IN,1722528033
556,saint-pierre,-21.3393,55.4781,21.82,68,0,1.03,RE,1722528035
557,mount pearl,47.5166,-52.7813,29.69,62,23,4.02,CA,1722528036
558,ola,59.5833,151.2833,9.57,89,100,5.08,RU,1722528037
559,paphos,34.7667,32.4167,33.46,74,20,6.17,CY,1722528038
560,san clemente,33.427,-117.612,22.56,93,47,0.45,US,1722527890
561,salekhard,66.53,66.6019,18.21,87,100,4.0,RU,1722528042
562,yaren,-0.5472,166.916,28.08,71,4,1.95,NR,1722528043
563,baharly,38.4362,57.4316,33.62,40,34,5.32,TM,1722528044
564,berezovyy,51.6667,135.7,14.35,82,100,1.76,RU,1722528045
565,lospalos,-8.5186,127.0025,22.02,84,80,3.45,TL,1722528046
566,cannonvale,-20.2833,148.7,19.66,77,52,6.18,AU,1722528048
567,kirtland,36.7342,-108.3598,32.01,26,100,3.03,US,1722528049
